[
  {
    "name": "Australian Synchrotron",
    "acronym": "ANSTO",
    "continent": "Asia",
    "country": "Australia",
    "energy": 3,
    "website": "https://www.ansto.gov.au/research/facilities/australian-synchrotron/overview",
    "lat": -37.914034,
    "long": 145.142635,
    "status_image": "http://fsm.synchrotron.org.au/lib/EMF/graph.php?pv1=SR11BCM01:CURRENT_MONITOR&pv2=SR11BCM01:LONG_LIFETIME_MONITOR&transparent=true&text=FFFFFF&auto=true&h=628&w=974&random=1531686041179",
    "status_page": "http://fsm.synchrotron.org.au/fsm/",
    "beam_history": "",
    "unit": "",
    "obj": ""
  },
  {
    "name": "Beijing Synchrotron Radiation Facility",
    "acronym": "BSRF",
    "continent": "Asia",
    "country": "China",
    "energy": 2.5,
    "website": "http://english.bsrf.ihep.cas.cn/",
    "lat": 39.915201,
    "long": 116.252526,
    "status_image": "",
    "status_page": "",
    "beam_history": "",
    "unit": "",
    "obj": ""
  },
  {
    "name": "National Synchrotron Radiation Research Center",
    "acronym": "TPS",
    "continent": "Asia",
    "country": "Taiwan",
    "energy": 3,
    "website": "https://www.nsrrc.org.tw/",
    "lat": 24.782643,
    "long": 120.994311,
    "status_image": "http://www.icg.nsrrc.org.tw/trend24h/userbeam/jpg_curt_tps_user_rwd.php",
    "status_page": "",
    "beam_history": "",
    "unit": "",
    "obj": ""
  },
  {
    "name": "Pohang Accelerator Laboratory",
    "acronym": "PAL",
    "continent": "Asia",
    "country": "South Korea",
    "energy": 3,
    "website": "http://pal.postech.ac.kr/paleng/",
    "lat": 36.023453,
    "long": 129.315707,
    "status_image": "http://141.223.48.196/png/GBEAMCURRENTday.png",
    "status_page": "",
    "beam_history": "",
    "unit": "",
    "obj": ""
  },
  {
    "name": "Photon Factory KEK",
    "acronym": "PF",
    "continent": "Asia",
    "country": "Japan",
    "energy": 2.5,
    "website": "https://www.kek.jp/en/Facility/IMSS/PF/",
    "lat": 36.150526,
    "long": 140.0686,
    "status_image": "http://www-pfring.kek.jp/PF/status/pfdb/sel_img_panel_scr",
    "status_page": "",
    "beam_history": "",
    "unit": "",
    "obj": ""
  },
  {
    "name": "Siam Photon Source",
    "acronym": "SPS",
    "continent": "Asia",
    "country": "Thailand",
    "energy": 1.2,
    "website": "https://www.slri.or.th/en/index.php",
    "lat": 14.873362,
    "long": 102.021823,
    "status_image": "",
    "status_page": "http://accelerator.slri.or.th/machine-status/",
    "beam_history": "",
    "unit": "",
    "obj": ""
  },
  {
    "name": "Japan Synchrotron Radiation Research Institute",
    "acronym": "SPring8",
    "continent": "Asia",
    "country": "Japan",
    "energy": 8,
    "website": "http://www.spring8.or.jp/en/",
    "lat": 34.947583,
    "long": 134.428185,
    "status_image": "http://www.spring8.or.jp/ext/en/status/dcct2.gif",
    "status_page": "",
    "beam_history": "",
    "unit": "",
    "obj": ""
  },
  {
    "name": "Shanghai Synchrotron Radiation Facility",
    "acronym": "SSRF",
    "continent": "Asia",
    "country": "China",
    "energy": 3.5,
    "website": "http://e-ssrf.sinap.cas.cn/",
    "lat": 31.18844,
    "long": 121.587289,
    "status_image": "http://159.226.222.249/pic/beamplot.png",
    "status_page": "",
    "beam_history": "",
    "unit": "",
    "obj": ""
  },
  {
    "name": "ALBA Synchrotron",
    "acronym": "ALBA",
    "continent": "Europe",
    "country": "Spain",
    "energy": 3,
    "website": "https://www.cells.es/en/",
    "lat": 41.486118,
    "long": 2.110676,
    "status_image": "https://www.cells.es/static/Files/Computing/Controls/Reports/msGUI.png",
    "status_page": "",
    "beam_history": "",
    "unit": "",
    "obj": ""
  },
  {
    "name": "Karlsruhe Institute of Technology SRS",
    "acronym": "ANKA",
    "continent": "Europe",
    "country": "Germany",
    "energy": 2.5,
    "website": "https://www.anka.kit.edu/",
    "lat": 49.094599,
    "long": 8.42961,
    "status_image": "http://ankastatserv.ka.fzk.de:8080/axis/chart/medium/actualchart25.jpg",
    "status_page": "https://ankastatserv.anka.kit.edu/axis/StatusNew.html",
    "beam_history": "https://ankastatserv.anka.kit.edu/axis/api/json/values",
    "unit": "mA",
    "obj": "0.values"
  },
  {
    "name": "Helmholtz-Zentrum Berlin BESSY II",
    "acronym": "Bessy II",
    "continent": "Europe",
    "country": "Germany",
    "energy": 1.7,
    "website": "https://www.helmholtz-berlin.de/user/user-info/beamtime-schedules/bessy2/index_en.html",
    "lat": 52.428139,
    "long": 13.53169,
    "status_image": "https://www-csr.bessy.de/webopi/ws",
    "status_page": "",
    "beam_history": "",
    "unit": "",
    "obj": ""
  },
  {
    "name": "Diamond Light Source",
    "acronym": "DLS",
    "continent": "Europe",
    "country": "United Kingdom",
    "energy": 3,
    "website": "https://diamond.ac.uk",
    "lat": 51.574378,
    "long": -1.31083,
    "status_image": "http://controls.diamond.ac.uk/webstatus/workfiles/statusGraph48dpi.png",
    "status_page": "",
    "beam_history": "",
    "unit": "",
    "obj": ""
  },
  {
    "name": "Elettra Sincrotrone Trieste",
    "acronym": "ELETTRA",
    "continent": "Europe",
    "country": "Italy",
    "energy": 2.4,
    "website": "https://www.elettra.trieste.it",
    "lat": 45.645463,
    "long": 13.849111,
    "status_image": "",
    "status_page": "https://www.elettra.trieste.it/lightsources/elettra/status.html",
    "beam_history": "https://www.elettra.trieste.it/modules/mod_elettra_machine_status/charts.json",
    "unit": "mA",
    "obj": "chart1.data",
    "start": "ts0",
    "step": "step"
  },
  {
    "name": "European Synchrotron Radiation Facility",
    "acronym": "ESRF",
    "continent": "Europe",
    "country": "France",
    "energy": 6,
    "website": "http://www.esrf.eu",
    "lat": 45.208521,
    "long": 5.690084,
    "status_image": "http://www.esrf.eu/esrf_status/gifs/img3.png",
    "status_page": "",
    "beam_history": "",
    "unit": "",
    "obj": ""
  },
  {
    "name": "MAX IV Laboratory",
    "acronym": "MaxIV",
    "continent": "Europe",
    "country": "Sweden",
    "energy": 3,
    "website": "https://www.maxiv.lu.se/",
    "lat": 55.726541,
    "long": 13.234984,
    "status_image": "",
    "status_page": "https://status.maxiv.lu.se/status/html/",
    "beam_history": "https://status.maxiv.lu.se/historydecimated?key=R3-319S2/DIA/DCCT-01/CURRENT",
    "unit": "A",
    "obj": "",
    "timestamp": "timestamp",
    "value": "value"
  },
  {
    "name": "PETRA-III at DESY Photon Science",
    "acronym": "PETRA III",
    "continent": "Europe",
    "country": "Germany",
    "energy": 6,
    "website": "http://photon-science.desy.de/facilities/petra_iii/status_operation/index_eng.html",
    "lat": 53.579055,
    "long": 9.88392,
    "status_image": "http://adweb.desy.de/mca/accstatus/infoscreen/petra_status_800.png",
    "status_page": "",
    "beam_history": "",
    "unit": "",
    "obj": ""
  },
  {
    "name": "Swiss Light Source",
    "acronym": "SLS",
    "continent": "Europe",
    "country": "Switzerland",
    "energy": 2.4,
    "website": "https://www.psi.ch/sls/",
    "lat": 47.534863,
    "long": 8.221281,
    "status_image": "https://abk.web.psi.ch/tmp/t.png",
    "status_page": "https://www.psi.ch/sls/realtime-status",
    "beam_history": "https://gfa-status.web.psi.ch/machine_status.json?_=1544783024957",
    "unit": "",
    "obj": ""
  },
  {
    "name": "SOLARIS National Synchrotron Radiation Centre",
    "acronym": "SOLARIS",
    "continent": "Europe",
    "country": "Poland",
    "energy": 1.5,
    "website": "https://synchrotron.uj.edu.pl/en_GB/",
    "lat": 50.022817,
    "long": 19.895486,
    "status_image": "https://solaris-duo.edu.pl/status/status.png?1544783541349",
    "status_page": "",
    "beam_history": "",
    "unit": "",
    "obj": ""
  },
  {
    "name": "Synchrotron SOLEIL",
    "acronym": "SOLEIL",
    "continent": "Europe",
    "country": "France",
    "energy": 2.75,
    "website": "https://www.synchrotron-soleil.fr",
    "lat": 48.712028,
    "long": 2.146223,
    "status_image": "https://www.synchrotron-soleil.fr/sites/default/files/WebInterfaces/machinestatus/MachineStatus-extranet-medium.png?1544781022690",
    "status_page": "",
    "beam_history": "",
    "unit": "",
    "obj": ""
  },
  {
    "name": "Raja Ramanna Centre for Advanced Technology",
    "acronym": "INDUS",
    "continent": "Middle East",
    "country": "India",
    "energy": 2.5,
    "website": "http://www.rrcat.gov.in/",
    "lat": 22.667167,
    "long": 75.809224,
    "status_image": "",
    "status_page": "",
    "beam_history": "",
    "unit": "",
    "obj": ""
  },
  {
    "name": "Synchrotron-light for Experimental Science and Applications in the Middle East",
    "acronym": "SEASAME",
    "continent": "Middle East",
    "country": "Jordan",
    "energy": 2.5,
    "website": "http://www.sesame.org.jo",
    "lat": 32.109898,
    "long": 35.736857,
    "status_image": "",
    "status_page": "",
    "beam_history": "",
    "unit": "",
    "obj": ""
  },
  {
    "name": "Advanced Light Source",
    "acronym": "ALS",
    "continent": "North America",
    "country": "USA",
    "energy": 1.9,
    "website": "https://als.lbl.gov/",
    "lat": 37.876052,
    "long": -122.24877,
    "status_image": "",
    "status_page": "https://als.lbl.gov/beam-status/",
    "beam_history": "https://controls.als.lbl.gov/als-beamstatus/archive/beamhistory?v=1.27",
    "unit": "mA",
    "obj": "data",
    "timestamp": "tstamp",
    "value": "val"
  },
  {
    "name": "Advanced Photon Source",
    "acronym": "APS",
    "continent": "North America",
    "country": "USA",
    "energy": 7,
    "website": "https://www.aps.anl.gov/",
    "lat": 41.705912,
    "long": -87.986804,
    "status_image": "https://www3.aps.anl.gov/aod/blops/plots/smallStatusPlot.png",
    "status_page": "",
    "beam_history": "",
    "unit": "",
    "obj": ""
  },
  {
    "name": "Cornell High Energy Synchrotron Source",
    "acronym": "CHESS",
    "continent": "North America",
    "country": "USA",
    "energy": 5.3,
    "website": "https://www.chess.cornell.edu/",
    "lat": 42.44506,
    "long": -76.472935,
    "status_image": "http://chartdirector.chess.cornell.edu/makechart.php?cid=3&output=PNG&hours=12",
    "status_page": "http://scoreboard.chess.cornell.edu/",
    "beam_history": "",
    "unit": "",
    "obj": ""
  },
  {
    "name": "Canadian Light Source",
    "acronym": "CLS",
    "continent": "North America",
    "country": "Canada",
    "energy": 2.9,
    "website": "https://www.lightsource.ca/",
    "lat": 52.136912,
    "long": -106.631185,
    "status_image": "",
    "status_page": "https://mstatus.lightsource.ca/",
    "beam_history": "https://mstatus.lightsource.ca/api/archiveData.json",
    "unit": "mA",
    "obj": "result.current"
  },
  {
    "name": "Linac Coherent Light Source",
    "acronym": "LCLS",
    "continent": "North America",
    "country": "USA",
    "energy": "",
    "website": "https://lcls.slac.stanford.edu",
    "lat": 37.417642,
    "long": -122.196264,
    "status_image": "https://www.slac.stanford.edu/grp/cd/soft/images/lcls.gif",
    "status_page": "",
    "beam_history": "",
    "unit": "",
    "obj": ""
  },
  {
    "name": "National Synchrotron Light Source II",
    "acronym": "NSLS-II",
    "continent": "North America",
    "country": "USA",
    "energy": 3,
    "website": "https://www.bnl.gov/ps/",
    "lat": 40.863055,
    "long": -72.872759,
    "status_image": "http://status.nsls2.bnl.gov/status-history.png",
    "status_page": "",
    "beam_history": "",
    "unit": "",
    "obj": ""
  },
  {
    "name": "Standford Synchrotron Radiation Lightsource",
    "acronym": "SSRL",
    "continent": "North America",
    "country": "USA",
    "energy": 3,
    "website": "http://www-ssrl.slac.stanford.edu/",
    "lat": 37.419878,
    "long": -122.202732,
    "status_image": "https://www-ssrl.slac.stanford.edu/spear_status/dcctplot24",
    "status_page": "",
    "beam_history": "",
    "unit": "",
    "obj": ""
  },
  {
    "name": "Laboratório Nacional de Luz Síncrotron",
    "acronym": "LNLS",
    "continent": "Americas",
    "country": "Brazil",
    "energy": 1.37,
    "website": "https://www.lnls.cnpem.br/en/",
    "lat": -22.80394,
    "long": -47.053759,
    "status_image": "",
    "status_page": "https://status.lnls.br/",
    "beam_history": "https://status.lnls.br/Data",
    "unit": "mA",
    "obj": "chartPoints",
    "timestamp": "time",
    "timebase": "ms",
    "value": "current"
  }
]